     3.04           OBSERVATION DATA    M: MIXED            RINEX VERSION / TYPE
PosApp V7.03.01     Spirent             20230419 000018 UTC PGM / RUN BY / DATE 
                                                            MARKER NAME         
GROUND_CRAFT                                                MARKER TYPE         
                    Spirent                                 OBSERVER / AGENCY   
rec_num             rec_type            rec_vers            REC # / TYPE / VERS 
1                   ant_type                                ANT # / TYPE        
     1.000                                                  INTERVAL            
  2023     4    19     0     0    0.0000000     GPS         TIME OF FIRST OBS   
   422974.9889 -5362550.3001  3415853.7035                  APPROX POSITION XYZ 
        0.0000        0.0000        0.0000                  ANTENNA: DELTA X/Y/Z
G    4 C1C L1C D1C S1C                                      SYS / # / OBS TYPES 
GNSS SIMULATOR OUTPUTS ALIGNED CARRIER PHASES.              COMMENT             
NO FURTHER PHASE SHIFTS APPLIED IN THE RINEX ENCODER.       COMMENT             
G L1C                                                       SYS / PHASE SHIFT   
DBHZ                                                        SIGNAL STRENGTH UNIT
                                                            END OF HEADER       
> 2023 04 19 00 00  0.0000000  0  9       0.000000000000
G05  20396643.499 9 107185063.033 9      1079.897 9        56.013 9
G09  21144419.810 9 111114651.654 9     -1110.627 9        55.700 9
G14  24057336.671 9 126422107.916 9      3122.207 9        54.579 9
G26  24291107.272 9 127650580.774 9     -2905.029 9        54.495 9
G18  21275616.419 9 111804091.996 9     -1366.531 9        55.646 9
G30  21667750.583 9 113864768.092 9      2621.099 9        55.488 9
G12  20247340.287 9 106400470.036 9       512.243 9        56.077 9
G15  22567543.979 9 118593209.552 9     -2506.040 9        55.134 9
G22  21949838.301 9 115347147.648 9       804.041 9        55.375 9
> 2023 04 19 00 00  1.0000000  0  9       0.000000000000
G05  20396437.569 9 107183980.864 9      1084.257 9        56.013 9
G09  21144632.149 9 111115767.505 9     -1120.703 9        55.700 9
G14  24056743.874 9 126418992.758 9      3108.209 9        54.579 9
G26  24291659.063 9 127653480.452 9     -2894.288 9        54.495 9
G18  21275875.913 9 111805455.645 9     -1361.120 9        55.646 9
G30  21667250.689 9 113862141.135 9      2632.371 9        55.488 9
G12  20247242.566 9 106399956.507 9       514.752 9        56.077 9
G15  22568020.004 9 118595711.076 9     -2496.982 9        55.134 9
G22  21949685.920 9 115346346.886 9       797.383 9        55.375 9
> 2023 04 19 00 00  2.0000000  0  9       0.000000000000
G05  20396230.924 9 107182894.940 9      1087.365 9        56.013 9
G09  21144846.176 9 111116892.224 9     -1128.274 9        55.700 9
G14  24056153.713 9 126415891.446 9      3094.425 9        54.580 9
G26  24292208.759 9 127656369.122 9     -2882.891 9        54.495 9
G18  21276134.603 9 111806815.074 9     -1358.217 9        55.646 9
G30  21666748.929 9 113859504.374 9      2640.600 9        55.488 9
G12  20247144.402 9 106399440.656 9       516.892 9        56.077 9
G15  22568494.260 9 118598203.307 9     -2487.334 9        55.134 9
G22  21949534.896 9 115345553.248 9       789.662 9        55.376 9
> 2023 04 19 00 00  3.0000000  0  9       0.000000000000
G05  20396023.826 9 107181806.636 9      1088.977 9        56.013 9
G09  21145061.365 9 111118023.049 9     -1132.838 9        55.700 9
G14  24055566.177 9 126412803.934 9      3080.637 9        54.580 9
G26  24292756.186 9 127659245.866 9     -2870.440 9        54.495 9
G18  21276393.030 9 111808173.115 9     -1358.415 9        55.646 9
G30  21666245.942 9 113856861.164 9      2645.179 9        55.488 9
G12  20247045.868 9 106398922.858 9       518.632 9        56.077 9
G15  22568966.590 9 118600685.414 9     -2476.734 9        55.134 9
G22  21949385.481 9 115344768.072 9       780.445 9        55.376 9
> 2023 04 19 00 00  4.0000000  0  9       0.000000000000
G05  20395816.579 9 107180717.550 9      1088.908 9        56.013 9
G09  21145277.105 9 111119156.769 9     -1134.017 9        55.700 9
G14  24054981.229 9 126409730.016 9      3067.388 9        54.580 9
G26  24293301.171 9 127662109.779 9     -2857.364 9        54.494 9
G18  21276651.811 9 111809533.017 9     -1361.942 9        55.646 9
G30  21665742.467 9 113854215.394 9      2645.665 9        55.489 9
G12  20246947.050 9 106398403.566 9       519.855 9        56.077 9
G15  22569436.835 9 118603156.567 9     -2465.546 9        55.134 9
G22  21949237.950 9 115343992.792 9       769.961 9        55.376 9
> 2023 04 19 00 00  5.0000000  0  9       0.000000000000
G05  20395609.513 9 107179629.408 9      1087.091 9        56.013 9
G09  21145492.733 9 111120289.902 9     -1131.667 9        55.700 9
G14  24054398.660 9 126406668.606 9      3055.856 9        54.580 9
G26  24293843.695 9 127664960.761 9     -2844.826 9        54.494 9
G18  21276911.567 9 111810898.044 9     -1368.591 9        55.646 9
G30  21665239.305 9 113851571.262 9      2641.916 9        55.489 9
G12  20246848.062 9 106397883.378 9       520.394 9        56.077 9
G15  22569904.971 9 118605616.637 9     -2454.780 9        55.133 9
G22  21949092.471 9 115343228.298 9       759.062 9        55.376 9
> 2023 04 19 00 00  6.0000000  0  9       0.000000000000
G05  20395402.950 9 107178543.915 9      1083.652 9        56.013 9
G09  21145707.594 9 111121419.004 9     -1126.039 9        55.700 9
G14  24053818.002 9 126403617.233 9      3047.582 9        54.580 9
G26  24294384.016 9 127667800.160 9     -2834.502 9        54.494 9
G18  21277172.833 9 111812271.001 9     -1377.635 9        55.646 9
G30  21664737.236 9 113848932.875 9      2634.280 9        55.489 9
G12  20246749.049 9 106397363.064 9       520.085 9        56.077 9
G15  22570371.212 9 118608066.747 9     -2445.891 9        55.133 9
G22  21948949.003 9 115342474.371 9       749.075 9        55.376 9
> 2023 04 19 00 00  7.0000000  0  9       0.000000000000
G05  20395197.167 9 107177462.523 9      1078.976 9        56.013 9
G09  21145921.129 9 111122541.137 9     -1117.904 9        55.700 9
G14  24053238.487 9 126400571.872 9      3044.045 9        54.581 9
G26  24294922.726 9 127670631.097 9     -2828.182 9        54.494 9
G18  21277435.952 9 111813653.702 9     -1387.833 9        55.646 9
G30  21664236.917 9 113846303.690 9      2623.729 9        55.489 9
G12  20246650.183 9 106396843.524 9       518.840 9        56.077 9
G15  22570836.066 9 118610509.566 9     -2440.445 9        55.133 9
G22  21948807.227 9 115341729.332 9       741.542 9        55.376 9
> 2023 04 19 00 00  8.0000000  0  9       0.000000000000
G05  20394992.343 9 107176386.166 9      1073.705 9        56.014 9
G09  21146132.976 9 111123654.404 9     -1108.558 9        55.699 9
G14  24052659.116 9 126397527.263 9      3046.160 9        54.581 9
G26  24295460.730 9 127673458.327 9     -2827.260 9        54.494 9
G18  21277700.995 9 111815046.515 9     -1397.574 9        55.646 9
G30  21663738.762 9 113843685.872 9      2611.855 9        55.489 9
G12  20246551.641 9 106396325.683 9       516.712 9        56.077 9
G15  22571300.312 9 118612949.196 9     -2439.664 9        55.133 9
G22  21948666.539 9 115340990.014 9       737.822 9        55.376 9
> 2023 04 19 00 00  9.0000000  0  9       0.000000000000
G05  20394788.515 9 107175315.043 9      1068.650 9        56.014 9
G09  21146343.059 9 111124758.395 9     -1099.638 9        55.699 9
G14  24052078.800 9 126394477.692 9      3053.865 9        54.581 9
G26  24295999.122 9 127676287.591 9     -2832.242 9        54.493 9
G18  21277967.715 9 111816448.134 9     -1405.184 9        55.645 9
G30  21663242.837 9 113841079.771 9      2600.640 9        55.490 9
G12  20246453.572 9 106395810.325 9       513.923 9        56.077 9
G15  22571764.899 9 118615390.611 9     -2444.011 9        55.133 9
G22  21948526.128 9 115340252.153 9       738.688 9        55.376 9
> 2023 04 19 00 00 10.0000000  0  9       0.000000000000
G05  20394585.563 9 107174248.523 9      1064.626 9        56.014 9
G09  21146551.617 9 111125854.377 9     -1092.796 9        55.699 9
G14  24051496.571 9 126391418.063 9      3066.000 9        54.581 9
G26  24296538.983 9 127679124.578 9     -2842.509 9        54.493 9
G18  21278235.568 9 111817855.712 9     -1409.310 9        55.645 9
G30  21662748.824 9 113838483.720 9      2592.054 9        55.490 9
G12  20246356.068 9 106395297.940 9       510.835 9        56.077 9
G15  22572230.767 9 118617838.761 9     -2452.970 9        55.133 9
G22  21948385.116 9 115339511.131 9       744.056 9        55.376 9
> 2023 04 19 00 00 11.0000000  0  9       0.000000000000
G05  20394383.226 9 107173185.238 9      1062.262 9        56.014 9
G09  21146759.177 9 111126945.113 9     -1089.309 9        55.699 9
G14  24050911.763 9 126388344.883 9      3080.601 9        54.581 9
G26  24297081.181 9 127681973.843 9     -2856.481 9        54.493 9
G18  21278503.812 9 111819265.342 9     -1409.229 9        55.645 9
G30  21662256.070 9 113835894.288 9      2587.593 9        55.490 9
G12  20246259.146 9 106394788.616 9       507.868 9        56.077 9
G15  22572698.675 9 118620297.636 9     -2465.185 9        55.132 9
G22  21948242.720 9 115338762.837 9       753.029 9        55.376 9
> 2023 04 19 00 00 12.0000000  0  9       0.000000000000
G05  20394181.154 9 107172123.342 9      1061.868 9        56.014 9
G09  21146966.449 9 111128034.335 9     -1089.815 9        55.699 9
G14  24050324.113 9 126385256.771 9      3095.543 9        54.582 9
G26  24297626.233 9 127684838.109 9     -2872.192 9        54.493 9
G18  21278771.634 9 111820672.753 9     -1404.922 9        55.645 9
G30  21661763.710 9 113833306.922 9      2587.970 9        55.490 9
G12  20246162.749 9 106394282.046 9       505.374 9        56.077 9
G15  22573169.083 9 118622769.643 9     -2478.961 9        55.132 9
G22  21948098.379 9 115338004.323 9       764.266 9        55.376 9
> 2023 04 19 00 00 13.0000000  0  9       0.000000000000
G05  20393979.063 9 107171061.349 9      1061.357 9        56.014 9
G09  21147173.953 9 111129124.775 9     -1088.958 9        55.699 9
G14  24049734.043 9 126382155.941 9      3102.578 9        54.582 9
G26  24298173.882 9 127687716.018 9     -2879.191 9        54.493 9
G18  21279038.594 9 111822075.638 9     -1403.799 9        55.645 9
G30  21661271.091 9 113830718.199 9      2587.187 9        55.490 9
G12  20246066.732 9 106393777.475 9       504.186 9        56.077 9
G15  22573641.767 9 118625253.608 9     -2485.033 9        55.132 9
G22  21947952.148 9 115337235.872 9       768.969 9        55.376 9
> 2023 04 19 00 00 14.0000000  0  9       0.000000000000
G05  20393777.306 9 107170001.110 9      1059.100 9        56.014 9
G09  21147380.672 9 111130211.092 9     -1083.683 9        55.699 9
G14  24049143.529 9 126379052.777 9      3104.126 9        54.582 9
G26  24298721.713 9 127690594.888 9     -2878.932 9        54.492 9
G18  21279306.176 9 111823481.792 9     -1408.425 9        55.645 9
G30  21660779.310 9 113828133.875 9      2581.457 9        55.491 9
G12  20245970.848 9 106393273.600 9       503.499 9        56.077 9
G15  22574114.585 9 118627738.281 9     -2484.653 9        55.132 9
G22  21947805.990 9 115336467.813 9       767.421 9        55.376 9
> 2023 04 19 00 00 15.0000000  0  9       0.000000000000
G05  20393575.986 9 107168943.168 9      1056.795 9        56.014 9
G09  21147586.404 9 111131292.217 9     -1078.637 9        55.699 9
G14  24048552.524 9 126375947.035 9      3107.676 9        54.582 9
G26  24299269.705 9 127693474.602 9     -2880.843 9        54.492 9
G18  21279574.581 9 111824892.267 9     -1412.397 9        55.645 9
G30  21660288.613 9 113825555.253 9      2575.853 9        55.491 9
G12  20245875.130 9 106392770.601 9       502.449 9        56.077 9
G15  22574587.517 9 118630223.554 9     -2486.199 9        55.132 9
G22  21947659.976 9 115335700.506 9       767.450 9        55.376 9
> 2023 04 19 00 00 16.0000000  0  9       0.000000000000
G05  20393375.095 9 107167887.483 9      1054.611 9        56.014 9
G09  21147791.225 9 111132368.558 9     -1074.165 9        55.699 9
G14  24047960.687 9 126372836.919 9      3112.789 9        54.582 9
G26  24299818.243 9 127696357.184 9     -2884.596 9        54.492 9
G18  21279843.661 9 111826306.292 9     -1415.494 9        55.645 9
G30  21659798.939 9 113822982.001 9      2570.779 9        55.491 9
G12  20245779.639 9 106392268.792 9       501.138 9        56.077 9
G15  22575060.905 9 118632711.225 9     -2489.389 9        55.131 9
G22  21947513.819 9 115334932.445 9       768.886 9        55.376 9
> 2023 04 19 00 00 17.0000000  0  9       0.000000000000
G05  20393174.598 9 107166833.865 9      1052.679 9        56.014 9
G09  21147995.271 9 111133440.829 9     -1070.535 9        55.699 9
G14  24047367.774 9 126369721.148 9      3118.878 9        54.583 9
G26  24300367.630 9 127699244.231 9     -2889.677 9        54.492 9
G18  21280113.238 9 111827722.926 9     -1417.614 9        55.645 9
G30  21659310.154 9 113820413.423 9      2566.546 9        55.491 9
G12  20245684.413 9 106391768.379 9       499.675 9        56.077 9
G15  22575535.023 9 118635202.729 9     -2493.782 9        55.131 9
G22  21947367.279 9 115334162.377 9       771.402 9        55.376 9
> 2023 04 19 00 00 18.0000000  0  9       0.000000000000
G05  20392974.438 9 107165782.017 9      1051.078 9        56.014 9
G09  21148198.720 9 111134509.963 9     -1067.905 9        55.699 9
G14  24046773.661 9 126366599.072 9      3125.293 9        54.583 9
G26  24300918.062 9 127702136.769 9     -2895.472 9        54.492 9
G18  21280383.127 9 111829141.202 9     -1418.790 9        55.644 9
G30  21658822.080 9 113817848.580 9      2563.327 9        55.491 9
G12  20245589.472 9 106391269.461 9       498.163 9        56.077 9
G15  22576010.050 9 118637699.008 9     -2498.847 9        55.131 9
G22  21947220.192 9 115333389.428 9       774.571 9        55.376 9
> 2023 04 19 00 00 19.0000000  0  9       0.000000000000
G05  20392774.549 9 107164731.596 9      1049.826 9        56.015 9
G09  21148401.768 9 111135576.987 9     -1066.315 9        55.699 9
G14  24046178.346 9 126363470.675 9      3131.423 9        54.583 9
G26  24301469.616 9 127705035.201 9     -2901.367 9        54.491 9
G18  21280653.161 9 111830560.238 9     -1419.166 9        55.644 9
G30  21658334.518 9 113815286.430 9      2561.155 9        55.492 9
G12  20245494.816 9 106390772.044 9       496.686 9        56.077 9
G15  22576486.061 9 118640200.463 9     -2504.049 9        55.131 9
G22  21947072.475 9 115332613.174 9       777.935 9        55.377 9
> 2023 04 19 00 00 20.0000000  0  9       0.000000000000
G05  20392574.867 9 107163682.262 9      1048.895 9        56.015 9
G09  21148604.609 9 111136642.923 9     -1065.713 9        55.698 9
G14  24045581.932 9 126360336.506 9      3136.767 9        54.583 9
G26  24302022.258 9 127707939.349 9     -2906.825 9        54.491 9
G18  21280923.206 9 111831979.334 9     -1418.945 9        55.644 9
G30  21657847.275 9 113812725.956 9      2559.953 9        55.492 9
G12  20245400.434 9 106390276.060 9       495.302 9        56.078 9
G15  22576963.038 9 118642706.991 9     -2508.925 9        55.131 9
G22  21946924.134 9 115331833.636 9       781.078 9        55.377 9
> 2023 04 19 00 00 21.0000000  0  9       0.000000000000
G05  20392375.335 9 107162633.718 9      1048.235 9        56.015 9
G09  21148807.421 9 111137708.707 9     -1065.991 9        55.698 9
G14  24044984.605 9 126357197.539 9      3140.974 9        54.584 9
G26  24302575.864 9 127710848.565 9     -2911.450 9        54.491 9
G18  21281193.169 9 111833398.000 9     -1418.343 9        55.644 9
G30  21657360.179 9 113810166.255 9      2559.586 9        55.492 9
G12  20245306.303 9 106389781.402 9       494.039 9        56.078 9
G15  22577440.883 9 118645218.082 9     -2513.128 9        55.131 9
G22  21946775.242 9 115331051.207 9       783.671 9        55.377 9
> 2023 04 19 00 00 22.0000000  0  9       0.000000000000
G05  20392175.909 9 107161585.726 9      1047.784 9        56.015 9
G09  21149010.360 9 111138775.159 9     -1067.031 9        55.698 9
G14  24044386.601 9 126354055.018 9      3143.855 9        54.584 9
G26  24303130.251 9 127713761.884 9     -2915.004 9        54.491 9
G18  21281462.996 9 111834815.951 9     -1417.538 9        55.644 9
G30  21656873.086 9 113807606.567 9      2559.902 9        55.492 9
G12  20245212.400 9 106389287.940 9       492.908 9        56.078 9
G15  22577919.446 9 118647732.946 9     -2516.449 9        55.130 9
G22  21946625.927 9 115330266.552 9       785.508 9        55.377 9
> 2023 04 19 00 00 23.0000000  0  9       0.000000000000
G05  20391976.552 9 107160538.101 9      1047.494 9        56.015 9
G09  21149213.561 9 111139842.988 9     -1068.732 9        55.698 9
G14  24043788.180 9 126350910.303 9      3145.367 9        54.584 9
G26  24303685.204 9 127716678.183 9     -2917.409 9        54.491 9
G18  21281732.661 9 111836233.046 9     -1416.645 9        55.644 9
G30  21656385.877 9 113805046.273 9      2560.781 9        55.492 9
G12  20245118.701 9 106388795.547 9       491.900 9        56.078 9
G15  22578398.551 9 118650250.657 9     -2518.820 9        55.130 9
G22  21946476.341 9 115329480.476 9       786.506 9        55.377 9
> 2023 04 19 00 00 24.0000000  0  9       0.000000000000
G05  20391777.238 9 107159490.699 9      1047.332 9        56.015 9
G09  21149417.144 9 111140912.822 9     -1071.032 9        55.698 9
G14  24043189.596 9 126347764.731 9      3145.591 9        54.584 9
G26  24304240.510 9 127719596.330 9     -2918.724 9        54.490 9
G18  21282002.151 9 111837649.225 9     -1415.705 9        55.644 9
G30  21655898.454 9 113802484.853 9      2562.148 9        55.493 9
G12  20245025.183 9 106388304.108 9       490.996 9        56.078 9
G15  22578878.020 9 118652770.280 9     -2520.291 9        55.130 9
G22  21946326.644 9 115328693.814 9       786.697 9        55.377 9
> 2023 04 19 00 00 25.0000000  0  9       0.000000000000
G05  20391577.943 9 107158443.401 9      1047.287 9        56.015 9
G09  21149621.219 9 111141985.242 9     -1073.905 9        55.698 9
G14  24042591.079 9 126344619.509 9      3144.701 9        54.584 9
G26  24304795.975 9 127722515.317 9     -2919.122 9        54.490 9
G18  21282271.456 9 111839064.430 9     -1414.690 9        55.644 9
G30  21655410.727 9 113799921.834 9      2563.977 9        55.493 9
G12  20244931.829 9 106387813.531 9       490.170 9        56.078 9
G15  22579357.695 9 118655290.984 9     -2521.012 9        55.130 9
G22  21946176.977 9 115327907.314 9       786.207 9        55.377 9
> 2023 04 19 00 00 26.0000000  0  9       0.000000000000
G05  20391378.700 9 107157396.373 9      1046.771 9        56.015 9
G09  21149825.533 9 111143058.923 9     -1073.457 9        55.698 9
G14  24041992.681 9 126341474.915 9      3144.405 9        54.585 9
G26  24305351.441 9 127725434.307 9     -2918.764 9        54.490 9
G18  21282540.748 9 111840479.570 9     -1415.626 9        55.644 9
G30  21654922.887 9 113797358.225 9      2563.244 9        55.493 9
G12  20244838.587 9 106387323.545 9       489.813 9        56.078 9
G15  22579837.412 9 118657811.912 9     -2520.764 9        55.130 9
G22  21946027.453 9 115327121.561 9       785.225 9        55.377 9
> 2023 04 19 00 00 27.0000000  0  9       0.000000000000
G05  20391179.557 9 107156349.870 9      1046.235 9        56.015 9
G09  21150029.764 9 111144132.161 9     -1073.023 9        55.698 9
G14  24041394.397 9 126338330.920 9      3143.493 9        54.585 9
G26  24305906.781 9 127728352.631 9     -2917.783 9        54.490 9
G18  21282810.238 9 111841895.747 9     -1416.762 9        55.643 9
G30  21654435.190 9 113794795.366 9      2562.481 9        55.493 9
G12  20244745.408 9 106386833.888 9       489.514 9        56.078 9
G15  22580317.031 9 118660332.328 9     -2519.981 9        55.129 9
G22  21945878.162 9 115326337.033 9       783.751 9        55.377 9
> 2023 04 19 00 00 28.0000000  0  9       0.000000000000
G05  20390980.517 9 107155303.909 9      1045.690 9        56.015 9
G09  21150233.915 9 111145204.980 9     -1072.624 9        55.698 9
G14  24040796.349 9 126335188.164 9      3141.924 9        54.585 9
G26  24306461.871 9 127731269.647 9     -2916.142 9        54.490 9
G18  21283079.962 9 111843313.157 9     -1418.089 9        55.643 9
G30  21653947.640 9 113792233.275 9      2561.713 9        55.493 9
G12  20244652.280 9 106386344.497 9       489.282 9        56.078 9
G15  22580796.449 9 118662851.680 9     -2518.632 9        55.129 9
G22  21945729.200 9 115325554.233 9       781.765 9        55.377 9
> 2023 04 19 00 00 29.0000000  0  9       0.000000000000
G05  20390781.580 9 107154258.490 9      1045.155 9        56.015 9
G09  21150437.996 9 111146277.433 9     -1072.298 9        55.698 9
G14  24040198.665 9 126332047.322 9      3139.656 9        54.585 9
G26  24307016.584 9 127734184.680 9     -2913.813 9        54.489 9
G18  21283349.955 9 111844731.978 9     -1419.579 9        55.643 9
G30  21653460.232 9 113789671.937 9      2560.984 9        55.494 9
G12  20244559.189 9 106385855.301 9       489.126 9        56.078 9
G15  22581275.553 9 118665369.389 9     -2516.692 9        55.129 9
G22  21945580.666 9 115324773.682 9       779.253 9        55.377 9
> 2023 04 19 00 00 30.0000000  0  9       0.000000000000
G05  20390582.742 9 107153213.592 9      1044.653 9        56.015 9
G09  21150642.026 9 111147349.618 9     -1072.097 9        55.698 9
G14  24039601.482 9 126328909.114 9      3136.651 9        54.586 9
G26  24307570.786 9 127737097.029 9     -2910.772 9        54.489 9
G18  21283620.243 9 111846152.353 9     -1421.189 9        55.643 9
G30  21652972.955 9 113787111.284 9      2560.355 9        55.494 9
G12  20244466.119 9 106385366.218 9       489.058 9        56.078 9
G15  22581754.231 9 118667884.855 9     -2514.142 9        55.129 9
G22  21945432.660 9 115323995.907 9       776.212 9        55.377 9
> 2023 04 19 00 00 31.0000000  0  9       0.000000000000
G05  20390383.994 9 107152169.164 9      1044.220 9        56.016 9
G09  21150846.034 9 111148421.691 9     -1072.089 9        55.697 9
G14  24039004.944 9 126325774.292 9      3132.880 9        54.586 9
G26  24308124.341 9 127740005.979 9     -2907.015 9        54.489 9
G18  21283890.845 9 111847574.374 9     -1422.857 9        55.643 9
G30  21652485.782 9 113784551.176 9      2559.910 9        55.494 9
G12  20244373.053 9 106384877.154 9       489.090 9        56.078 9
G15  22582232.365 9 118670397.464 9     -2510.979 9        55.129 9
G22  21945285.282 9 115323221.434 9       772.654 9        55.377 9
> 2023 04 19 00 00 32.0000000  0  9       0.000000000000
G05  20390185.318 9 107151125.118 9      1043.897 9        56.016 9
G09  21151050.067 9 111149493.890 9     -1072.362 9        55.697 9
G14  24038409.197 9 126322643.631 9      3128.328 9        54.586 9
G26  24308677.114 9 127742910.817 9     -2902.554 9        54.489 9
G18  21284161.763 9 111848998.056 9     -1424.495 9        55.643 9
G30  21651998.668 9 113781991.379 9      2559.752 9        55.494 9
G12  20244279.971 9 106384388.002 9       489.234 9        56.078 9
G15  22582709.839 9 118672906.607 9     -2507.214 9        55.129 9
G22  21945138.628 9 115322450.765 9       768.611 9        55.377 9
> 2023 04 19 00 00 33.0000000  0  9       0.000000000000
G05  20389986.689 9 107150081.320 9      1043.734 9        56.016 9
G09  21151254.186 9 111150566.543 9     -1073.017 9        55.697 9
G14  24037814.391 9 126319517.910 9      3123.005 9        54.586 9
G26  24309228.975 9 127745810.861 9     -2897.437 9        54.489 9
G18  21284432.981 9 111850423.318 9     -1425.996 9        55.643 9
G30  21651511.547 9 113779431.546 9      2560.004 9        55.494 9
G12  20244186.849 9 106383898.646 9       489.502 9        56.078 9
G15  22583186.543 9 118675411.701 9     -2502.890 9        55.128 9
G22  21944992.785 9 115321684.357 9       764.145 9        55.377 9
> 2023 04 19 00 00 34.0000000  0  9       0.000000000000
G05  20389788.072 9 107149037.582 9      1043.785 9        56.016 9
G09  21151458.475 9 111151640.090 9     -1074.170 9        55.697 9
G14  24037220.667 9 126316397.879 9      3116.957 9        54.586 9
G26  24309779.806 9 127748705.493 9     -2891.748 9        54.488 9
G18  21284704.461 9 111851849.955 9     -1427.224 9        55.643 9
G30  21651024.328 9 113776871.197 9      2560.807 9        55.494 9
G12  20244093.664 9 106383408.958 9       489.900 9        56.078 9
G15  22583662.377 9 118677912.220 9     -2498.081 9        55.128 9
G22  21944847.825 9 115320922.590 9       759.348 9        55.377 9
> 2023 04 19 00 00 35.0000000  0  9       0.000000000000
G05  20389589.421 9 107147993.661 9      1044.111 9        56.016 9
G09  21151663.041 9 111152715.090 9     -1075.944 9        55.697 9
G14  24036628.157 9 126313284.223 9      3110.277 9        54.587 9
G26  24310329.510 9 127751594.207 9     -2885.628 9        54.488 9
G18  21284976.137 9 111853277.621 9     -1428.024 9        55.643 9
G30  21650536.892 9 113774309.708 9      2562.309 9        55.495 9
G12  20244000.391 9 106382918.805 9       490.431 9        56.078 9
G15  22584137.259 9 118680407.737 9     -2492.910 9        55.128 9
G22  21944703.799 9 115320165.731 9       754.357 9        55.377 9
> 2023 04 19 00 00 36.0000000  0  9       0.000000000000
G05  20389390.676 9 107146949.252 9      1044.771 9        56.016 9
G09  21151868.013 9 111153792.226 9     -1078.462 9        55.697 9
G14  24036036.966 9 126310177.502 9      3103.119 9        54.587 9
G26  24310878.024 9 127754476.664 9     -2879.275 9        54.488 9
G18  21285247.911 9 111854705.801 9     -1428.222 9        55.642 9
G30  21650049.091 9 113771746.305 9      2564.662 9        55.495 9
G12  20243907.004 9 106382428.055 9       491.091 9        56.078 9
G15  22584611.135 9 118682897.972 9     -2487.552 9        55.128 9
G22  21944560.727 9 115319413.885 9       749.355 9        55.378 9
> 2023 04 19 00 00 37.0000000  0  9       0.000000000000
G05  20389191.769 9 107145903.993 9      1045.817 9        56.016 9
G09  21152073.544 9 111154872.299 9     -1081.835 9        55.697 9
G14  24035447.165 9 126307078.086 9      3095.710 9        54.587 9
G26  24311425.328 9 127757352.764 9     -2872.963 9        54.488 9
G18  21285519.651 9 111856133.802 9     -1427.635 9        55.642 9
G30  21649560.751 9 113769180.064 9      2568.004 9        55.495 9
G12  20243813.481 9 106381936.588 9       491.862 9        56.078 9
G15  22585083.992 9 118685382.852 9     -2482.244 9        55.128 9
G22  21944418.590 9 115318666.951 9       744.576 9        55.378 9
> 2023 04 19 00 00 38.0000000  0  9       0.000000000000
G05  20388992.619 9 107144857.451 9      1047.363 9        56.016 9
G09  21152279.870 9 111155956.551 9     -1087.426 9        55.697 9
G14  24034858.721 9 126303985.798 9      3089.557 9        54.587 9
G26  24311971.545 9 127760223.145 9     -2868.816 9        54.488 9
G18  21285791.136 9 111857560.467 9     -1425.023 9        55.642 9
G30  21649071.625 9 113766609.695 9      2573.327 9        55.495 9
G12  20243719.823 9 106381444.416 9       492.261 9        56.078 9
G15  22585555.946 9 118687862.985 9     -2478.977 9        55.127 9
G22  21944277.261 9 115317924.262 9       741.547 9        55.378 9
> 2023 04 19 00 00 39.0000000  0  9       0.000000000000
G05  20388793.169 9 107143809.336 9      1048.813 9        56.016 9
G09  21152487.419 9 111157047.228 9     -1093.765 9        55.697 9
G14  24034271.167 9 126300898.192 9      3085.889 9        54.587 9
G26  24312517.328 9 127763091.253 9     -2867.568 9        54.487 9
G18  21286061.958 9 111858983.642 9     -1421.408 9        55.642 9
G30  21648581.378 9 113764033.436 9      2579.038 9        55.495 9
G12  20243626.166 9 106380952.247 9       492.051 9        56.078 9
G15  22586027.607 9 118690341.577 9     -2478.343 9        55.127 9
G22  21944136.253 9 115317183.262 9       740.558 9        55.378 9
> 2023 04 19 00 00 40.0000000  0  9       0.000000000000
G05  20388593.472 9 107142759.927 9      1049.970 9        56.016 9
G09  21152696.088 9 111158143.789 9     -1099.232 9        55.697 9
G14  24033684.214 9 126297813.743 9      3083.111 9        54.588 9
G26  24313062.942 9 127765958.469 9     -2866.911 9        54.487 9
G18  21286332.137 9 111860403.443 9     -1418.273 9        55.642 9
G30  21648090.131 9 113761451.919 9      2583.885 9        55.496 9
G12  20243532.562 9 106380460.354 9       491.729 9        56.078 9
G15  22586499.202 9 118692819.821 9     -2478.179 9        55.127 9
G22  21943995.393 9 115316443.038 9       739.912 9        55.378 9
> 2023 04 19 00 00 41.0000000  0  9       0.000000000000
G05  20388393.574 9 107141709.453 9      1050.964 9        56.016 9
G09  21152905.734 9 111159245.488 9     -1104.089 9        55.697 9
G14  24033097.759 9 126294731.906 9      3080.578 9        54.588 9
G26  24313608.438 9 127768825.071 9     -2866.268 9        54.487 9
G18  21286601.760 9 111861820.322 9     -1415.541 9        55.642 9
G30  21647598.020 9 113758865.864 9      2588.170 9        55.496 9
G12  20243439.020 9 106379968.789 9       491.412 9        56.078 9
G15  22586970.769 9 118695297.919 9     -2477.988 9        55.127 9
G22  21943854.654 9 115315703.453 9       739.236 9        55.378 9
> 2023 04 19 00 00 42.0000000  0  9       0.000000000000
G05  20388193.490 9 107140658.008 9      1051.939 9        56.016 9
G09  21153116.270 9 111160351.862 9     -1108.632 9        55.697 9
G14  24032511.797 9 126291652.662 9      3077.875 9        54.588 9
G26  24314153.787 9 127771690.892 9     -2865.315 9        54.487 9
G18  21286870.888 9 111863234.598 9     -1413.029 9        55.642 9
G30  21647105.120 9 113756275.661 9      2592.239 9        55.496 9
G12  20243345.531 9 106379477.501 9       491.188 9        56.078 9
G15  22587442.273 9 118697775.688 9     -2477.491 9        55.127 9
G22  21943714.062 9 115314964.640 9       738.356 9        55.378 9
> 2023 04 19 00 00 43.0000000  0  9       0.000000000000
G05  20387993.211 9 107139605.536 9      1053.042 9        56.017 9
G09  21153327.665 9 111161462.749 9     -1113.166 9        55.696 9
G14  24031926.383 9 126288576.301 9      3074.789 9        54.588 9
G26  24314698.914 9 127774555.550 9     -2863.937 9        54.487 9
G18  21287139.539 9 111864646.367 9     -1410.481 9        55.642 9
G30  21646611.438 9 113753681.347 9      2596.455 9        55.496 9
G12  20243252.070 9 106378986.363 9       491.122 9        56.078 9
G15  22587913.644 9 118700252.760 9     -2476.591 9        55.127 9
G22  21943573.659 9 115314226.818 9       737.261 9        55.378 9
> 2023 04 19 00 00 44.0000000  0  9       0.000000000000
G05  20387792.698 9 107138551.835 9      1054.421 9        56.017 9
G09  21153539.946 9 111162578.292 9     -1117.994 9        55.696 9
G14  24031341.598 9 126285503.241 9      3071.281 9        54.588 9
G26  24315243.741 9 127777418.637 9     -2862.198 9        54.486 9
G18  21287407.678 9 111866055.446 9     -1407.596 9        55.642 9
G30  21646116.910 9 113751082.590 9      2601.182 9        55.496 9
G12  20243158.604 9 106378495.193 9       491.255 9        56.078 9
G15  22588384.810 9 118702728.749 9     -2475.348 9        55.126 9
G22  21943433.476 9 115313490.153 9       736.074 9        55.378 9
> 2023 04 19 00 00 45.0000000  0  9       0.000000000000
G05  20387591.885 9 107137496.558 9      1056.215 9        56.017 9
G09  21153753.197 9 111163698.932 9     -1123.406 9        55.696 9
G14  24030757.511 9 126282433.853 9      3067.485 9        54.589 9
G26  24315788.221 9 127780279.896 9     -2860.335 9        54.486 9
G18  21287675.209 9 111867461.332 9     -1404.034 9        55.641 9
G30  21645621.406 9 113748478.706 9      2606.768 9        55.497 9
G12  20243065.091 9 106378003.782 9       491.606 9        56.079 9
G15  22588855.722 9 118705203.405 9     -2473.972 9        55.126 9
G22  21943293.508 9 115312754.622 9       735.047 9        55.378 9
> 2023 04 19 00 00 46.0000000  0  9       0.000000000000
G05  20387390.682 9 107136439.228 9      1058.547 9        56.017 9
G09  21153967.554 9 111164825.385 9     -1129.658 9        55.696 9
G14  24030174.151 9 126279368.282 9      3063.712 9        54.589 9
G26  24316332.366 9 127783139.393 9     -2858.757 9        54.486 9
G18  21287941.970 9 111868863.168 9     -1399.437 9        55.641 9
G30  21645124.732 9 113745868.672 9      2613.528 9        55.497 9
G12  20242971.491 9 106377511.914 9       492.163 9        56.079 9
G15  22589326.386 9 118707676.760 9     -2472.819 9        55.126 9
G22  21943153.693 9 115312019.886 9       734.554 9        55.378 9
> 2023 04 19 00 00 47.0000000  0  9       0.000000000000
G05  20387188.976 9 107135379.257 9      1061.510 9        56.017 9
G09  21154183.196 9 111165958.594 9     -1136.945 9        55.696 9
G14  24029591.468 9 126276306.273 9      3060.458 9        54.589 9
G26  24316876.282 9 127785997.688 9     -2858.041 9        54.486 9
G18  21288207.730 9 111870259.743 9     -1393.455 9        55.641 9
G30  21644626.640 9 113743251.185 9      2621.705 9        55.497 9
G12  20242877.769 9 106377019.402 9       492.886 9        56.079 9
G15  22589796.891 9 118710149.278 9     -2472.393 9        55.126 9
G22  21943013.882 9 115311285.179 9       735.080 9        55.378 9
> 2023 04 19 00 00 48.0000000  0  9       0.000000000000
G05  20386986.641 9 107134315.986 9      1065.149 9        56.017 9
G09  21154400.333 9 111167099.653 9     -1145.365 9        55.696 9
G14  24029009.304 9 126273246.987 9      3058.392 9        54.589 9
G26  24317420.201 9 127788855.995 9     -2858.910 9        54.486 9
G18  21288472.195 9 111871649.515 9     -1385.791 9        55.641 9
G30  21644126.846 9 113740624.753 9      2631.430 9        55.497 9
G12  20242783.899 9 106376526.114 9       493.699 9        56.079 9
G15  22590267.433 9 118712621.992 9     -2473.324 9        55.126 9
G22  21942873.829 9 115310549.199 9       737.200 9        55.378 9
> 2023 04 19 00 00 49.0000000  0  9       0.000000000000
G05  20386783.552 9 107133248.745 9      1069.441 9        56.017 9
G09  21154619.177 9 111168249.689 9     -1154.876 9        55.696 9
G14  24028427.357 9 126270188.842 9      3058.317 9        54.590 9
G26  24317964.500 9 127791716.301 9     -2862.177 9        54.486 9
G18  21288735.025 9 111873030.695 9     -1376.251 9        55.641 9
G30  21643625.055 9 113737987.829 9      2642.665 9        55.497 9
G12  20242689.875 9 106376032.012 9       494.494 9        56.079 9
G15  22590738.338 9 118715096.609 9     -2476.317 9        55.125 9
G22  21942733.174 9 115309810.051 9       741.516 9        55.378 9
> 2023 04 19 00 00 50.0000000  0  9       0.000000000000
G05  20386579.591 9 107132176.925 9      1074.280 9        56.017 9
G09  21154839.919 9 111169409.697 9     -1165.259 9        55.696 9
G14  24027845.167 9 126267129.422 9      3061.076 9        54.590 9
G26  24318509.712 9 127794581.408 9     -2868.633 9        54.485 9
G18  21288995.858 9 111874401.382 9     -1364.816 9        55.641 9
G30  21643121.000 9 113735339.009 9      2655.165 9        55.498 9
G12  20242595.711 9 106375537.179 9       495.136 9        56.079 9
G15  22591210.063 9 118717575.539 9     -2482.058 9        55.125 9
G22  21942591.443 9 115309065.255 9       748.575 9        55.378 9
> 2023 04 19 00 00 51.0000000  0  9       0.000000000000
G05  20386375.232 9 107131103.015 9      1073.398 9        56.017 9
G09  21155061.548 9 111170574.363 9     -1163.820 9        55.696 9
G14  24027260.906 9 126264059.119 9      3079.186 9        54.590 9
G26  24319057.371 9 127797459.372 9     -2886.847 9        54.485 9
G18  21289255.184 9 111875764.150 9     -1361.118 9        55.641 9
G30  21642615.836 9 113732684.360 9      2653.804 9        55.498 9
G12  20242501.750 9 106375043.411 9       492.399 9        56.079 9
G15  22591683.926 9 118720065.703 9     -2497.885 9        55.125 9
G22  21942447.716 9 115308309.962 9       761.589 9        55.378 9
> 2023 04 19 00 00 52.0000000  0  9       0.000000000000
G05  20386171.116 9 107130030.377 9      1071.781 9        56.017 9
G09  21155282.775 9 111171736.921 9     -1161.133 9        55.696 9
G14  24026673.417 9 126260971.849 9      3094.959 9        54.590 9
G26  24319608.231 9 127800354.156 9     -2902.253 9        54.485 9
G18  21289514.019 9 111877124.334 9     -1359.569 9        55.641 9
G30  21642111.105 9 113730031.983 9      2650.727 9        55.498 9
G12  20242408.307 9 106374552.369 9       489.703 9        56.079 9
G15  22592160.572 9 118722570.494 9     -2511.293 9        55.125 9
G22  21942301.754 9 115307542.932 9       772.056 9        55.378 9
> 2023 04 19 00 00 53.0000000  0  9       0.000000000000
G05  20385967.356 9 107128959.614 9      1069.688 9        56.017 9
G09  21155503.415 9 111172896.391 9     -1157.731 9        55.696 9
G14  24026083.162 9 126257870.045 9      3108.259 9        54.590 9
G26  24320161.756 9 127803262.947 9     -2914.894 9        54.485 9
G18  21289772.722 9 111878483.829 9     -1359.652 9        55.641 9
G30  21641607.071 9 113727383.273 9      2646.573 9        55.498 9
G12  20242315.367 9 106374063.967 9       487.130 9        56.079 9
G15  22592639.541 9 118725087.489 9     -2522.324 9        55.125 9
G22  21942154.032 9 115306766.649 9       780.141 9        55.378 9
> 2023 04 19 00 00 54.0000000  0  9       0.000000000000
G05  20385764.022 9 107127891.087 9      1067.344 9        56.018 9
G09  21155723.377 9 111174052.299 9     -1154.077 9        55.695 9
G14  24025490.601 9 126254756.127 9      3119.227 9        54.591 9
G26  24320717.446 9 127806183.115 9     -2925.074 9        54.485 9
G18  21290031.555 9 111879844.005 9     -1360.843 9        55.641 9
G30  21641103.885 9 113724739.018 9      2641.901 9        55.498 9
G12  20242222.902 9 106373578.059 9       484.716 9        56.079 9
G15  22593120.403 9 118727614.432 9     -2531.248 9        55.125 9
G22  21942004.972 9 115305983.333 9       786.191 9        55.379 9
> 2023 04 19 00 00 55.0000000  0  9       0.000000000000
G05  20385561.144 9 107126824.957 9      1064.917 9        56.018 9
G09  21155942.649 9 111175204.581 9     -1150.526 9        55.695 9
G14  24024896.150 9 126251632.273 9      3128.201 9        54.591 9
G26  24321274.875 9 127809112.422 9     -2933.261 9        54.484 9
G18  21290290.682 9 111881205.727 9     -1362.676 9        55.640 9
G30  21640601.602 9 113722099.508 9      2637.143 9        55.499 9
G12  20242130.880 9 106373094.484 9       482.461 9        56.079 9
G15  22593602.794 9 118730149.414 9     -2538.476 9        55.124 9
G22  21941854.919 9 115305194.802 9       790.649 9        55.379 9
> 2023 04 19 00 00 56.0000000  0  9       0.000000000000
G05  20385358.726 9 107125761.247 9      1062.516 9        56.018 9
G09  21156161.274 9 111176353.463 9     -1147.305 9        55.695 9
G14  24024300.146 9 126248500.256 9      3135.634 9        54.591 9
G26  24321833.716 9 127812049.148 9     -2940.002 9        54.484 9
G18  21290550.189 9 111882569.443 9     -1364.779 9        55.640 9
G30  21640100.209 9 113719464.675 9      2632.581 9        55.499 9
G12  20242039.275 9 106372613.097 9       480.332 9        56.079 9
G15  22594086.437 9 118732690.972 9     -2544.484 9        55.124 9
G22  21941704.132 9 115304402.413 9       793.985 9        55.379 9
> 2023 04 19 00 00 57.0000000  0  9       0.000000000000
G05  20385156.758 9 107124699.901 9      1060.194 9        56.018 9
G09  21156379.327 9 111177499.337 9     -1144.521 9        55.695 9
G14  24023702.834 9 126245361.367 9      3142.029 9        54.591 9
G26  24322393.746 9 127814992.123 9     -2945.852 9        54.484 9
G18  21290810.100 9 111883935.285 9     -1366.892 9        55.640 9
G30  21639599.654 9 113716834.242 9      2628.355 9        55.499 9
G12  20241948.067 9 106372133.798 9       478.277 9        56.079 9
G15  22594571.146 9 118735238.131 9     -2549.755 9        55.124 9
G22  21941552.781 9 115303607.060 9       796.648 9        55.379 9
> 2023 04 19 00 00 58.0000000  0  9       0.000000000000
G05  20384955.225 9 107123640.835 9      1057.949 9        56.018 9
G09  21156596.892 9 111178642.651 9     -1142.175 9        55.695 9
G14  24023104.363 9 126242216.389 9      3147.898 9        54.591 9
G26  24322954.847 9 127817940.724 9     -2951.336 9        54.484 9
G18  21291070.402 9 111885303.177 9     -1368.864 9        55.640 9
G30  21639099.869 9 113714207.859 9      2624.473 9        55.499 9
G12  20241857.248 9 106371656.542 9       476.231 9        56.079 9
G15  22595056.824 9 118737790.384 9     -2554.746 9        55.124 9
G22  21941400.955 9 115302809.212 9       799.035 9        55.379 9
> 2023 04 19 00 00 59.0000000  0  9       0.000000000000
G05  20384754.114 9 107122583.996 9      1055.731 9        56.018 9
G09  21156814.046 9 111179783.799 9     -1140.163 9        55.695 9
G14  24022504.786 9 126239065.600 9      3153.728 9        54.592 9
G26  24323516.994 9 127820894.822 9     -2956.922 9        54.484 9
G18  21291331.061 9 111886672.951 9     -1370.659 9        55.640 9
G30  21638600.797 9 113711585.227 9      2620.823 9        55.499 9
G12  20241766.824 9 106371181.359 9       474.119 9        56.079 9
G15  22595543.458 9 118740347.660 9     -2559.863 9        55.124 9
G22  21941248.675 9 115302008.975 9       801.474 9        55.379 9
> 2023 04 19 00 01  0.0000000  0  9       0.000000000000
G05  20384553.431 9 107121529.399 9      1053.442 9        56.018 9
G09  21157030.833 9 111180923.022 9     -1138.283 9        55.695 9
G14  24021904.068 9 126235908.813 9      3159.965 9        54.592 9
G26  24324080.245 9 127823854.725 9     -2963.000 9        54.483 9
G18  21291592.051 9 111888044.458 9     -1372.355 9        55.640 9
G30  21638102.416 9 113708966.221 9      2617.172 9        55.500 9
G12  20241676.814 9 106370708.356 9       471.859 9        56.079 9
G15  22596031.105 9 118742910.260 9     -2565.443 9        55.123 9
G22  21941095.905 9 115301206.167 9       804.211 9        55.379 9
> 2023 04 19 00 01  1.0000000  0  9       0.000000000000
G05  20384353.202 9 107120477.187 9      1050.932 9        56.018 9
G09  21157247.251 9 111182060.307 9     -1136.224 9        55.695 9
G14  24021302.093 9 126232745.424 9      3166.986 9        54.592 9
G26  24324644.724 9 127826821.076 9     -2969.852 9        54.483 9
G18  21291853.369 9 111889417.696 9     -1374.167 9        55.640 9
G30  21637604.758 9 113706351.015 9      2613.153 9        55.500 9
G12  20241587.255 9 106370237.720 9       469.368 9        56.079 9
G15  22596519.878 9 118745478.776 9     -2571.726 9        55.123 9
G22  21940942.575 9 115300400.413 9       807.377 9        55.379 9
> 2023 04 19 00 01  2.0000000  0  9       0.000000000000
G05  20384153.487 9 107119427.680 9      1047.993 9        56.018 9
G09  21157463.226 9 111183195.267 9     -1133.550 9        55.695 9
G14  24020698.687 9 126229574.508 9      3175.046 9        54.592 9
G26  24325210.590 9 127829794.721 9     -2977.592 9        54.483 9
G18  21292115.072 9 111890792.954 9     -1376.473 9        55.640 9
G30  21637107.939 9 113703740.218 9      2608.251 9        55.500 9
G12  20241498.198 9 106369769.726 9       466.563 9        56.079 9
G15  22597009.922 9 118748053.975 9     -2578.808 9        55.123 9
G22  21940788.601 9 115299591.278 9       810.950 9        55.379 9
> 2023 04 19 00 01  3.0000000  0  9       0.000000000000
G05  20383954.376 9 107118381.351 9      1044.741 9        56.018 9
G09  21157678.567 9 111184326.888 9     -1129.270 9        55.695 9
G14  24020093.753 9 126226395.572 9      3181.731 9        54.593 9
G26  24325777.876 9 127832775.826 9     -2983.281 9        54.483 9
G18  21292377.331 9 111892171.132 9     -1380.338 9        55.640 9
G30  21636612.186 9 113701135.021 9      2601.965 9        55.500 9
G12  20241409.677 9 106369304.544 9       464.125 9        56.079 9
G15  22597501.264 9 118750635.987 9     -2583.984 9        55.123 9
G22  21940634.009 9 115298778.894 9       812.911 9        55.379 9
> 2023 04 19 00 01  4.0000000  0  9       0.000000000000
G05  20383755.854 9 107117338.112 9      1041.767 9        56.018 9
G09  21157892.989 9 111185453.682 9     -1124.363 9        55.695 9
G14  24019487.948 9 126223212.052 9      3185.086 9        54.593 9
G26  24326345.782 9 127835760.186 9     -2985.216 9        54.483 9
G18  21292640.459 9 111893553.881 9     -1385.179 9        55.639 9
G30  21636117.661 9 113698536.284 9      2595.577 9        55.500 9
G12  20241321.513 9 106368841.242 9       462.521 9        56.079 9
G15  22597993.167 9 118753220.954 9     -2585.753 9        55.123 9
G22  21940479.359 9 115297966.203 9       812.314 9        55.379 9
> 2023 04 19 00 01  5.0000000  0  9       0.000000000000
G05  20383557.881 9 107116297.754 9      1038.991 9        56.018 9
G09  21158106.507 9 111186575.729 9     -1119.800 9        55.695 9
G14  24018881.633 9 126220025.853 9      3187.130 9        54.593 9
G26  24326913.933 9 127838745.838 9     -2985.913 9        54.482 9
G18  21292904.512 9 111894941.487 9     -1390.018 9        55.639 9
G30  21635624.315 9 113695943.736 9      2589.611 9        55.501 9
G12  20241233.633 9 106368379.427 9       461.150 9        56.079 9
G15  22598485.300 9 118755807.129 9     -2586.444 9        55.122 9
G22  21940324.906 9 115297154.547 9       810.886 9        55.379 9
> 2023 04 19 00 01  6.0000000  0  9       0.000000000000
G05  20383360.412 9 107115260.053 9      1036.458 9        56.019 9
G09  21158319.198 9 111187693.429 9     -1115.679 9        55.694 9
G14  24018275.034 9 126216838.163 9      3188.108 9        54.593 9
G26  24327482.122 9 127841731.688 9     -2985.659 9        54.482 9
G18  21293169.471 9 111896333.856 9     -1394.679 9        55.639 9
G30  21635132.054 9 113693356.889 9      2584.191 9        55.501 9
G12  20241145.992 9 106367918.873 9       459.993 9        56.079 9
G15  22598977.482 9 118758393.561 9     -2586.307 9        55.122 9
G22  21940170.784 9 115296344.632 9       808.868 9        55.379 9
> 2023 04 19 00 01  7.0000000  0  9       0.000000000000
G05  20383163.401 9 107114224.751 9      1034.195 9        56.019 9
G09  21158531.152 9 111188807.253 9     -1112.056 9        55.694 9
G14  24017668.332 9 126213649.927 9      3188.263 9        54.593 9
G26  24328050.194 9 127844716.921 9     -2984.722 9        54.482 9
G18  21293435.290 9 111897730.741 9     -1399.033 9        55.639 9
G30  21634640.766 9 113690775.158 9      2579.386 9        55.501 9
G12  20241058.553 9 106367459.380 9       459.024 9        56.079 9
G15  22599469.578 9 118760979.541 9     -2585.576 9        55.122 9
G22  21940017.084 9 115295536.938 9       806.479 9        55.379 9
> 2023 04 19 00 01  8.0000000  0  9       0.000000000000
G05  20382966.793 9 107113191.574 9      1032.209 9        56.019 9
G09  21158742.466 9 111189917.714 9     -1108.951 9        55.694 9
G14  24017061.660 9 126210461.852 9      3187.822 9        54.594 9
G26  24328618.042 9 127847700.979 9     -2983.345 9        54.482 9
G18  21293701.901 9 111899131.789 9     -1402.994 9        55.639 9
G30  21634150.331 9 113688197.912 9      2575.225 9        55.501 9
G12  20240971.283 9 106367000.774 9       458.215 9        56.079 9
G15  22599961.495 9 118763564.580 9     -2584.460 9        55.122 9
G22  21939863.859 9 115294731.738 9       803.908 9        55.379 9
> 2023 04 19 00 01  9.0000000  0  9       0.000000000000
G05  20382770.537 9 107112160.244 9      1030.499 9        56.019 9
G09  21158953.237 9 111191025.326 9     -1106.359 9        55.694 9
G14  24016455.112 9 126207274.429 9      3186.988 9        54.594 9
G26  24329185.602 9 127850683.526 9     -2981.732 9        54.482 9
G18  21293969.223 9 111900536.576 9     -1406.505 9        55.639 9
G30  21633660.627 9 113685624.505 9      2571.704 9        55.501 9
G12  20240884.154 9 106366542.908 9       457.540 9        56.079 9
G15  22600453.178 9 118766148.387 9     -2583.139 9        55.122 9
G22  21939711.129 9 115293929.136 9       801.308 9        55.379 9
> 2023 04 19 00 01 10.0000000  0  9       0.000000000000
G05  20382574.582 9 107111130.492 9      1029.052 9        56.019 9
G09  21159163.563 9 111192130.595 9     -1104.259 9        55.694 9
G14  24015848.746 9 126204087.965 9      3185.932 9        54.594 9
G26  24329752.847 9 127853664.415 9     -2980.054 9        54.481 9
G18  21294237.168 9 111901944.638 9     -1409.539 9        55.639 9
G30  21633171.534 9 113683054.306 9      2568.803 9        55.502 9
G12  20240797.142 9 106366085.661 9       456.974 9        56.080 9
G15  22600944.602 9 118768730.834 9     -2581.760 9        55.122 9
G22  21939558.886 9 115293129.095 9       798.803 9        55.379 9
> 2023 04 19 00 01 11.0000000  0  9       0.000000000000
G05  20382378.877 9 107110102.060 9      1027.855 9        56.019 9
G09  21159373.534 9 111193233.998 9     -1102.620 9        55.694 9
G14  24015242.592 9 126200902.610 9      3184.791 9        54.594 9
G26  24330319.778 9 127856643.650 9     -2978.442 9        54.481 9
G18  21294505.645 9 111903355.491 9     -1412.088 9        55.639 9
G30  21632682.936 9 113680486.713 9      2566.486 9        55.502 9
G12  20240710.230 9 106365628.934 9       456.495 9        56.080 9
G15  22601435.767 9 118771311.920 9     -2580.436 9        55.121 9
G22  21939407.102 9 115292331.471 9       796.485 9        55.380 9
